[
    {
        "State": "Abuja",
        "Name": "Dorben Polytechnic",
        "Location": "Abuja"
    },
    {
        "State": "Abuja",
        "Name": "Citi Polytechnic",
        "Location": "Abuja"
    },
    {
        "State": "Abia",
        "Name": "Abia State Polytechnic",
        "Location": "Aba"
    },
    {
        "State": "Adamawa",
        "Name": "Adamawa State Polytechnic",
        "Location": "Yola"
    },
    {
        "State": "Adamawa",
        "Name": "Federal Polytechnic, Mubi",
        "Location": "Mubi"
    },
    {
        "State": "Akwa Ibom",
        "Name": "Akwa Ibom State Polytechnic",
        "Location": "Ikot Ekpene"
    },
    {
        "State": "Akwa Ibom",
        "Name": "Akwa Ibom State College of Education",
        "Location": "Afaha Nsit"
    },
    {
        "State": "Akwa Ibom",
        "Name": "Foundation College of Technology",
        "Location": "Ikot Ekpene"
    },
    {
        "State": "Akwa Ibom",
        "Name": "Heritage Polytechnic",
        "Location": "Eket"
    },
    {
        "State": "Akwa Ibom",
        "Name": "Maritime Academy of Nigeria",
        "Location": "Oron"
    },
    {
        "State": "Akwa Ibom",
        "Name": "Southern Atlantic Polytechnic",
        "Location": "Uyo"
    },
    {
        "State": "Anambra",
        "Name": "Ekwenugo Okeke Polytechnic",
        "Location": "Uli"
    },
    {
        "State": "Anambra",
        "Name": "Anambra State polytechnic, Mgbakwu",
        "Location": "Mgbakwu"
    },
    {
        "State": "Anambra",
        "Name": "Federal Polytechnic, Oko",
        "Location": "Oko"
    },
    {
        "State": "Anambra",
        "Name": "The UA College of Science and Technology, Isuofia",
        "Location": "Anambra"
    },
    {
        "State": "Bauchi",
        "Name": "Abubakar Tafari Ali Polytechnic",
        "Location": "Bauchi"
    },
    {
        "State": "Bauchi",
        "Name": "Federal Polytechnic, Bauchi",
        "Location": "Bauchi"
    },
    {
        "State": "Bayelsa",
        "Name": "Bayelsa State College of Arts and Science"
    },
    {
        "State": "Bayelsa",
        "Name": "Federal Polytechnic Ekowe Bayelsa State",
        "Location": "Ekowe"
    },
    {
        "State": "Benue",
        "Name": "Benue State Polytechnic",
        "Location": "ugbokolo"
    },
    {
        "State": "Benue",
        "Name": "Akperan Orshi College of Agriculture",
        "Location": "Yandew"
    },
    {
        "State": "Borno",
        "Name": "Mohamet Lawan College of Agriculture",
        "Location": "Borno"
    },
    {
        "State": "Borno",
        "Name": "Ramat Polytechnic",
        "Location": "Maiduguri"
    },
    {
        "State": "Cross River",
        "Name": "Ibrahim Babangida College of Agriculture",
        "Location": "Obubra"
    },
    {
        "State": "Cross River",
        "Name": "Divine Polytechnic, Mkpani",
        "Location": "Mkpani"
    },
    {
        "State": "Delta",
        "Name": "Delta State Polytechnic (three institutions)",
        "Location": "Otefe-Oghara\/Ogwashi-Ukwu"
    },
    {
        "State": "Delta",
        "Name": "Petroleum Training Institute",
        "Location": "Effurun"
    },
    {
        "State": "Ebonyi",
        "Name": "Akanu Ibiam Federal Polytechnic",
        "Location": "Unwana"
    },
    {
        "State": "Ebonyi",
        "Name": "Federal College of Agriculture, Ishiagu",
        "Location": "Ishiagu"
    },
    {
        "State": "Ebonyi",
        "Name": "Savannah Institute of Technology",
        "Location": "Ishieke"
    },
    {
        "State": "Edo",
        "Name": "Edo State Polytechnic Usen",
        "Location": "Usen"
    },
    {
        "State": "Edo",
        "Name": "Auchi Polytechnic",
        "Location": "Auchi"
    },
    {
        "State": "Edo",
        "Name": "Kings Polytechnic",
        "Location": "Ubiaja"
    },
    {
        "State": "Edo",
        "Name": "Shaka Polytechnic",
        "Location": "Benin city"
    },
    {
        "State": "Ekiti",
        "Name": "Federal Polytechnic, Ado-Ekiti",
        "Location": "Ado Ekiti"
    },
    {
        "State": "Enugu",
        "Name": "Enugu State Polytechnic",
        "Location": "Iwollo"
    },
    {
        "State": "Enugu",
        "Name": "Federal School of Dental Technology & Therapy",
        "Location": "Enugu"
    },
    {
        "State": "Enugu",
        "Name": "Institute of Management Technology, Enugu",
        "Location": "Enugu"
    },
    {
        "State": "Enugu",
        "Name": "Our Saviour Institute of Science and Technology",
        "Location": "Enugu"
    },
    {
        "State": "Imo",
        "Name": "Federal College of Land Resources Technology, Owerri",
        "Location": "Owerri"
    },
    {
        "State": "Imo",
        "Name": "Federal Polytechnic, Nekede",
        "Location": "Nekede"
    },
    {
        "State": "Abia",
        "Name": "Temple Gate Polytechnic",
        "Location": "Aba"
    },
    {
        "State": "Imo",
        "Name": "Imo State Polytechnic",
        "Location": "Umuagwo"
    },
    {
        "State": "Imo",
        "Name": "Imo State Technological Skills Acquisition Center"
    },
    {
        "State": "Jigawa",
        "Name": "Hussaini Adamu Federal Polytechnic",
        "Location": "Kazaure"
    },
    {
        "State": "Jigawa",
        "Name": "Hussani Adamu Polytechnic",
        "Location": "Jigawa"
    },
    {
        "State": "Kaduna",
        "Name": "College of Agriculture and Animal Science",
        "Location": "Kaduna"
    },
    {
        "State": "Kaduna",
        "Name": "Nigerian Institute of Leather and Science Technology",
        "Location": "Zaria"
    },
    {
        "State": "Kaduna",
        "Name": "Federal College of Forestry Mechanisation",
        "Location": "Afaka"
    },
    {
        "State": "Kaduna",
        "Name": "Kaduna Polytechnic",
        "Location": "Kaduna"
    },
    {
        "State": "Kaduna",
        "Name": "Nigerian College of Aviation Technology",
        "Location": "Zaria"
    },
    {
        "State": "Kaduna",
        "Name": "federal school of statistics Manchok",
        "Location": "Manchok"
    },
    {
        "Location": "Ibadan"
    },
    {
        "Location": "Enugu"
    },
    {
        "State": "Kaduna",
        "Name": "Nuhu Bamalli Polytechnic",
        "Location": "Zaria"
    },
    {
        "State": "Kaduna",
        "Name": "Samaru College of Agriculture",
        "Location": "Zaria"
    },
    {
        "State": "Kano",
        "Name": "Audu Bako School of Agriculture",
        "Location": "Dambatta"
    },
    {
        "State": "Kano",
        "Name": "Kano State Polytechnic",
        "Location": "Kano"
    },
    {
        "State": "Kano",
        "Name": "Mohammed Abdullahi Wase Polytechnic",
        "Location": "kano"
    },
    {
        "State": "Katsina",
        "Name": "Hassan Usman Katsina Polytechnic",
        "Location": "Katsina"
    },
    {
        "State": "Kebbi",
        "Name": "College of Agriculture, Zuru",
        "Location": "Zuru"
    },
    {
        "State": "Kebbi",
        "Name": "Federal Polytechnic, Birnin-Kebbi",
        "Location": "Birnin Kebbi"
    },
    {
        "State": "Kebbi",
        "Name": "Kebbi State Polytechnic",
        "Location": "Kebbi"
    },
    {
        "State": "Kogi",
        "Name": "College of Agriculture, Kabba",
        "Location": "Kabba"
    },
    {
        "State": "Kogi",
        "Name": "Federal Polytechnic, Idah",
        "Location": "Idah"
    },
    {
        "State": "Kogi",
        "Name": "Kogi State Polytechnic",
        "Location": "Lokoja"
    },
    {
        "State": "Kwara",
        "Name": "Federal Polytechnic, Offa",
        "Location": "Offa"
    },
    {
        "State": "Kwara",
        "Name": "Kwara State Polytechnic",
        "Location": "Kwara"
    },
    {
        "State": "Lagos",
        "Name": "Coastal Polytechnic",
        "Location": "Apapa"
    },
    {
        "State": "Lagos",
        "Name": "Federal College of Fisheries and Marine Technology",
        "Location": "Lagos"
    },
    {
        "State": "Lagos",
        "Name": "Grace Polytechnic",
        "Location": "Lagos"
    },
    {
        "State": "Lagos",
        "Name": "Lagos City Polytechnic",
        "Location": "Lagos"
    },
    {
        "State": "Lagos",
        "Name": "Lagos State University of Science and Technology",
        "Location": "Lagos"
    },
    {
        "State": "Lagos",
        "Name": "Ronik Polytechnic",
        "Location": "Lagos"
    },
    {
        "State": "Lagos",
        "Name": "School of Agriculture, Ikorodu",
        "Location": "Ikorodu"
    },
    {
        "State": "Lagos",
        "Name": "Wavecrest College of Hospitality",
        "Location": "Lagos"
    },
    {
        "State": "Lagos",
        "Name": "Wolex Polytechnic",
        "Location": "Lagos"
    },
    {
        "State": "Lagos",
        "Name": "Yaba College of Technology",
        "Location": "Lagos"
    },
    {
        "State": "Nasarawa",
        "Name": "College of Agriculture, Lafia",
        "Location": "Lafia"
    },
    {
        "State": "Nasarawa",
        "Name": "Maurid Institute of Management & Technology, Nasarawa",
        "Location": "Nasarawa"
    },
    {
        "State": "Nasarawa",
        "Name": "Federal Polytechnic Nasarawa",
        "Location": "Nasarawa"
    },
    {
        "State": "Nasarawa",
        "Name": "Nasarawa State Polytechnic",
        "Location": "Lafia"
    },
    {
        "State": "Niger",
        "Name": "Federal College of Fresh Water Fisheries Technology",
        "Location": "New Bussa"
    },
    {
        "State": "Niger",
        "Name": "Federal College of Wildlife Management",
        "Location": "New Bussa"
    },
    {
        "State": "Niger",
        "Name": "Federal Polytechnic, Bida",
        "Location": "Bida"
    },
    {
        "State": "Niger",
        "Name": "Niger State College of Agriculture",
        "Location": "Mokwa"
    },
    {
        "State": "Niger",
        "Name": "Niger State Polytechnic",
        "Location": "Zungeru"
    },
    {
        "State": "Ogun",
        "Name": "Abraham Adesanya Polytechnic",
        "Location": "Ijebu-Igbo"
    },
    {
        "State": "Ogun",
        "Name": "Allover Central Polytechnic",
        "Location": "Sango-Ota"
    },
    {
        "State": "Ogun",
        "Name": "Federal Polytechnic, Ilaro",
        "Location": "Ilaro"
    },
    {
        "State": "Ogun",
        "Name": "Gateway Polytechnic Saapade",
        "Location": "Saapade"
    },
    {
        "State": "Ogun",
        "Name": "Moshood Abiola Polytechnic",
        "Location": "Abeokuta"
    },
    {
        "State": "Ogun",
        "Name": "Ogun State Institute of technologyy",
        "Location": "Igbesa"
    },
    {
        "State": "Ogun",
        "Name": "Ogun State College of Health Technology",
        "Location": "Ilese-Ijebu"
    },
    {
        "State": "Ondo",
        "Name": "Rufus Giwa Polytechnic",
        "Location": "Owo"
    },
    {
        "State": "Osun",
        "Name": "Federal Polytechnic, Ede",
        "Location": "Ede"
    },
    {
        "State": "Osun",
        "Name": "Osun State College of Technology",
        "Location": "Esa-Oke"
    },
    {
        "State": "Osun",
        "Name": "Osun State Polytechnic",
        "Location": "Iree"
    },
    {
        "State": "Osun",
        "Name": "Igbajo Polytechnic, Igbajo",
        "Location": "Igbajo"
    },
    {
        "State": "Osun",
        "Name": "Iwo City Polytechnic, Iwo",
        "Location": "Iwo"
    },
    {
        "State": "Osun",
        "Name": "Wolex Polytechnic, Iwo",
        "Location": "Iwo"
    },
    {
        "State": "Osun",
        "Name": "Polytechnic Ile-Ife",
        "Location": "Ile-Ife"
    },
    {
        "State": "Osun",
        "Name": "Interlink Polytechnic",
        "Location": "Ijebu-Jesa"
    },
    {
        "State": "Osun",
        "Name": "Southern Nigeria Institute of Innovative Technology (SNIITPOLY)",
        "Location": "Ifewara"
    },
    {
        "State": "Osun",
        "Name": "Villanova Polytechnic Imesi Ile (Formerly- The Polytechnic, Imesi Ile)",
        "Location": "Imesi Ile"
    },
    {
        "State": "Osun",
        "Name": "Offer Centre Institute of Agriculture",
        "Location": "Iwo"
    },
    {
        "State": "Oyo",
        "Name": "Federal College of Animal Health & Production Technology",
        "Location": "Ibadan"
    },
    {
        "State": "Oyo",
        "Name": "Federal College of Forestry, Ibadan",
        "Location": "Ibadan"
    },
    {
        "State": "Oyo",
        "Name": "Federal Polytechnic Ayede",
        "Location": "Ibadan"
    },
    {
        "State": "Oyo",
        "Name": "Novelty Polytechnic, Kishi",
        "Location": "Kishi"
    },
    {
        "State": "Oyo",
        "Name": "The Polytechnic, Ibadan",
        "Location": "Ibadan"
    },
    {
        "State": "Oyo",
        "Name": "The Kings Poly, Shaki, Oyo",
        "Location": "Shaki, Oyo"
    },
    {
        "State": "Oyo",
        "Name": "Tower Polytechnic, Ibadan",
        "Location": "Ibadan"
    },
    {
        "State": "Oyo",
        "Name": "The Oke-Ogun Polytechnic, Saki",
        "Location": "Saki"
    },
    {
        "State": "Plateau",
        "Name": "Federal College of Animal Health and Production Technology, Vom",
        "Location": "Vom"
    },
    {
        "State": "Plateau",
        "Name": "Federal College of Education, Pankshin",
        "Location": "Pankshin"
    },
    {
        "State": "Plateau",
        "Name": "Federal College of Forestry. Jos",
        "Location": "Jos"
    },
    {
        "State": "Plateau",
        "Name": "Federal College of Land Resources Technology, Kuru",
        "Location": "Jos"
    },
    {
        "State": "Plateau",
        "Name": "Plateau State College of Agriculture",
        "Location": "Plateau"
    },
    {
        "State": "Plateau",
        "Name": "Plateau State Polytechnic",
        "Location": "Barkin-Ladi"
    },
    {
        "State": "Rivers",
        "Name": "Eastern Polytechnic",
        "Location": "Port Harcourt"
    },
    {
        "State": "Rivers",
        "Name": "Port Harcourt Polytechnic (Captain Elechi Amadi Polytechnic)",
        "Location": "Port Harcourt"
    },
    {
        "State": "Rivers",
        "Name": "Rivers State Polytechnic ( Kenule Beeson Saro-Wiwa Polytechnic )",
        "Location": "Bori"
    },
    {
        "State": "Taraba",
        "Name": "College of Agriculture, Jalingo",
        "Location": "Jalingo"
    },
    {
        "State": "Yobe",
        "Name": "Federal Polytechnic Damaturu",
        "Location": "Damaturu"
    },
    {
        "State": "Yobe",
        "Name": "Mai Idris Alooma Polytechnic",
        "Location": "Geidam"
    },
    {
        "State": "Zamfara",
        "Name": "Abdul Gusau Polytechnic",
        "Location": "Talatan Mafara"
    },
    {
        "State": "Zamfara",
        "Name": "Abdul Gusau Polytechnic",
        "Location": "talatan mafara"
    },
    {
        "State": "Zamfara",
        "Name": "Federal Polytechnic, kauran Namoda",
        "Location": "Kaura-Namoda"
    },
    {
        "State": "Oyo",
        "Name": "Federal College of Education (Special), Oyo",
        "Location": "Oyo"
    },
    {
        "State": "Ondo",
        "Name": "Adeyemi College of Education",
        "Location": "Ondo"
    },
    {
        "State": "Osun",
        "Name": "Federal College of Education, Iwo",
        "Location": "Iwo"
    },
    {
        "State": "Delta",
        "Name": "Federal College of Education (Technical), Asaba",
        "Location": "Asaba"
    },
    {
        "State": "Ogun",
        "Name": "Federal College of Education, Abeokuta",
        "Location": "Osiele-Abeokuta"
    },
    {
        "State": "Kano",
        "Name": "Federal College of Education, Kano",
        "Location": "Kano City"
    },
    {
        "State": "Enugu",
        "Name": "Federal College of Education, Eha-Amufu",
        "Location": "Eha-Amufu"
    },
    {
        "State": "Kogi",
        "Name": "Federal College of Education, Okene",
        "Location": "Okene"
    },
    {
        "State": "Gombe",
        "Name": "Federal College of Education (Technical), Gombe",
        "Location": "Gombe"
    },
    {
        "State": "Rivers",
        "Name": "Federal College of Education (Technical), Omoku",
        "Location": "Omoku"
    },
    {
        "State": "Niger",
        "Name": "Federal College of Education, Kontagora",
        "Location": "Kontagora"
    },
    {
        "State": "Kaduna",
        "Name": "Federal College of Education, Zaria",
        "Location": "Zaria"
    },
    {
        "State": "Plateau",
        "Name": "Federal College of Education, Pankshin",
        "Location": "Pankshin"
    },
    {
        "State": "Imo",
        "Name": "Alvan Ikoku Federal College of Education",
        "Location": "Owerri"
    },
    {
        "State": "Adamawa",
        "Name": "Federal College of Education, Yola",
        "Location": "Yola"
    },
    {
        "State": "Yobe",
        "Name": "Federal College of Education (Technical), Potiskum",
        "Location": "Potiskum"
    },
    {
        "State": "Zamfara",
        "Name": "Federal College of Education (Technical), Gusau",
        "Location": "Gusau"
    },
    {
        "State": "Lagos",
        "Name": "Federal College of Education (Technical), Akoka",
        "Location": "Akoka"
    },
    {
        "State": "Katsina",
        "Name": "Federal College of Education, Katsina",
        "Location": "Katsina"
    },
    {
        "State": "Kano",
        "Name": "Federal College of Education (Technical), Bichi",
        "Location": "Bichi"
    },
    {
        "State": "Cross River",
        "Name": "Federal College of Education, Obudu",
        "Location": "Obudu"
    },
    {
        "State": "Anambra",
        "Name": "Federal College of Education (Technical), Umunze",
        "Location": "Umunze"
    },
    {
        "State": "Ogun",
        "Name": "Piaget College of Education",
        "Location": "Abeokuta"
    },
    {
        "State": "Lagos",
        "Name": "St. Augustine College of Education",
        "Location": "Akoka"
    },
    {
        "State": "Enugu",
        "Name": "Our Saviour Institute of Science and Technology",
        "Location": "Enugu"
    },
    {
        "State": "Oyo",
        "Name": "Delar College of Education",
        "Location": "Ibadan"
    },
    {
        "State": "Ogun",
        "Name": "Yewa Central College of Education",
        "Location": "Ayetoro"
    },
    {
        "State": "Enugu",
        "Name": "Institute of Ecumenical Education, (Thinkers Corner), Enugu",
        "Location": "Enugu"
    },
    {
        "State": "Lagos",
        "Name": "Ansar-Ud-Deen College of Education",
        "Location": "Isolo"
    },
    {
        "State": "Enugu",
        "Name": "African Thinkers Community of Inquiry College of Education",
        "Location": "Enugu"
    },
    {
        "State": "Nasarawa",
        "Name": "City College of Education, Mararaba",
        "Location": "Mararaba Gurku"
    },
    {
        "State": "Oyo",
        "Name": "Muftau Olanihun College of Education",
        "Location": "Ibadan"
    },
    {
        "State": "Abia",
        "Name": "Havard Wilson College of Education",
        "Location": "Aba"
    },
    {
        "State": "Kwara",
        "Name": "College of Education Offa",
        "Location": "Offa"
    },
    {
        "State": "Kwara",
        "Name": "Nigerian Army School of Education (NASE), Ilorin",
        "Location": "Ilorin"
    },
    {
        "State": "Kwara",
        "Name": "Nana Aishat Memorial College of Education",
        "Location": "Ilorin"
    },
    {
        "State": "Abia",
        "Name": "Abia State College of Education (Technical)",
        "Location": "Arochukwu"
    },
    {
        "State": "Adamawa",
        "Name": "Adamawa State College of Education",
        "Location": "Hong"
    },
    {
        "State": "Kebbi",
        "Name": "Adamu Augie College of Education",
        "Location": "Argungu"
    },
    {
        "State": "Bauchi",
        "Name": "Adamu Tafawa Balewa College of Education",
        "Location": "Kangere"
    },
    {
        "State": "Lagos",
        "Name": "Adeniran Ogunsanya College of Education",
        "Location": "Otto, Ijanikin"
    },
    {
        "State": "Akwa Ibom",
        "Name": "Akwa Ibom State College of Education",
        "Location": "Afaha Nsit"
    },
    {
        "State": "Bauchi",
        "Name": "Aminu Saleh College of Education",
        "Location": "Azare"
    },
    {
        "State": "Katsina",
        "Name": "Bilyaminu Othman College of Education",
        "Location": "Dutsin-Ma"
    },
    {
        "State": "Yobe",
        "Name": "College of Education and Legal Studies, Nguru",
        "Location": "Nguru"
    },
    {
        "State": "Cross River",
        "Name": "College Of Education, Akamkpa",
        "Location": "Akamkpa"
    },
    {
        "State": "Nasarawa",
        "Name": "College of Education, Akwanga",
        "Location": "Akwanga"
    },
    {
        "State": "Gombe",
        "Name": "College of Education, Billiri",
        "Location": "Billiri"
    },
    {
        "State": "Edo",
        "Name": "College of Education, Ekiadolor",
        "Location": "Ekiadolor"
    },
    {
        "State": "Plateau",
        "Name": "College of Education, Gindiri",
        "Location": "Gindiri"
    },
    {
        "State": "Benue",
        "Name": "College of Education, Katsina-Ala",
        "Location": "Katsina-Ala"
    },
    {
        "State": "Oyo",
        "Name": "College Of Education, Lanlate",
        "Location": "Lanlate"
    },
    {
        "State": "Benue",
        "Name": "College of Education, Oju",
        "Location": "Oju"
    },
    {
        "State": "Borno",
        "Name": "College of Education, Waka-Biu",
        "Location": "Waka-Biu"
    },
    {
        "State": "Delta",
        "Name": "College of Education, Warri",
        "Location": "Warri"
    },
    {
        "State": "Ebonyi",
        "Name": "Ebonyi State College of Education",
        "Location": "Abakaliki"
    },
    {
        "State": "Edo",
        "Name": "Edo State College of Education",
        "Location": "Igueben"
    },
    {
        "State": "Enugu",
        "Name": "Enugu State College of Education (Technical)",
        "Location": "Enugu"
    },
    {
        "State": "Abuja",
        "Name": "Abuja College of Education",
        "Location": "Zuba, Abuja"
    },
    {
        "State": "Imo",
        "Name": "Imo State College of Education",
        "Location": "Ihitte Uboma"
    },
    {
        "State": "Katsina",
        "Name": "Isa Kaita College of Education",
        "Location": "Dutsinma"
    },
    {
        "State": "Bayelsa",
        "Name": "Isaac Jasper Boro College of Education",
        "Location": "Sagbama"
    },
    {
        "State": "Jigawa",
        "Name": "Jigawa State College of Education",
        "Location": "Gumel"
    },
    {
        "State": "Jigawa",
        "Name": "Jigawa State College of Education and Legal Studies",
        "Location": "Ringim"
    },
    {
        "State": "Kano",
        "Name": "Kano State College of Education and Preliminary Studies",
        "Location": "Kano"
    },
    {
        "State": "Kaduna",
        "Name": "Kaduna State College of Education",
        "Location": "Gidan-Waya"
    },
    {
        "State": "Borno",
        "Name": "Kashim Ibrahim College of Education",
        "Location": "Maiduguri"
    },
    {
        "State": "Kogi",
        "Name": "Kogi State College of Education, Ankpa",
        "Location": "Ankpa"
    },
    {
        "State": "Kogi",
        "Name": "Kogi State College of Education (Technical), Kabba",
        "Location": "Kabba"
    },
    {
        "State": "Kwara",
        "Name": "Kwara State College of Education, Ilorin",
        "Location": "Ilorin"
    },
    {
        "State": "Kwara",
        "Name": "Kwara State College of Education (Technical), Lafiagi",
        "Location": "Lafiagi"
    },
    {
        "State": "Kwara",
        "Name": "Kwara State College of Education, Oro",
        "Location": "Oro"
    },
    {
        "State": "Lagos",
        "Name": "Michael Otedola College of Primary Education",
        "Location": "Noforija, Epe"
    },
    {
        "State": "Borno",
        "Name": "Mohammed Goni College of Legal and Islamic Studies",
        "Location": "Maiduguri"
    },
    {
        "State": "Oyo",
        "Name": "Moje College Of Education",
        "Location": "Ibadan"
    },
    {
        "State": "Niger",
        "Name": "Niger State College of Education",
        "Location": "Minna"
    },
    {
        "State": "Anambra",
        "Name": "Nwafor Orizu College of Education",
        "Location": "Nsugbe"
    },
    {
        "State": "Osun",
        "Name": "Osun State College of Education, Ilesa",
        "Location": "Ilesa"
    },
    {
        "State": "Kano",
        "Name": "Sa'adatu Rimi College of Education",
        "Location": "Kumbotso"
    },
    {
        "State": "Sokoto",
        "Name": "Shehu Shagari College of Education",
        "Location": "Sokoto"
    },
    {
        "State": "Ogun",
        "Name": "Sikiru Adetona College of Education Science and Technology, Omu-Ajose, Ogun State",
        "Location": "Ijebu-Ode"
    },
    {
        "State": "Borno",
        "Name": "Umar Ibn Ibrahim El Kanemi College of Science and Technology",
        "Location": "Bama"
    },
    {
        "State": "Yobe",
        "Name": "Umar Suleiman College of Education",
        "Location": "Gashua"
    },
    {
        "State": "Katsina",
        "Name": "Yusuf Bala Usman College of Legal and General Studies",
        "Location": "Daura"
    },
    {
        "State": "Bauchi",
        "Name": "Abubakar Tafawa Balewa University",
        "Abbreviation": "ATBU",
        "Location": "Bauchi"
    },
    {
        "State": "Kaduna",
        "Name": "Ahmadu Bello University",
        "Abbreviation": "ABU",
        "Location": "Zaria"
    },
    {
        "State": "Ebonyi",
        "Name": "Alex Ekwueme Federal University Ndufu Alike Ikwo",
        "Abbreviation": "AE-FUNAI",
        "Location": "Ikwo"
    },
    {
        "State": "Kano",
        "Name": "Bayero University",
        "Abbreviation": "BUK",
        "Location": "Kano"
    },
    {
        "State": "Kebbi",
        "Name": "Federal University Birnin Kebbi",
        "Abbreviation": "FUBK",
        "Location": "Birnin Kebbi"
    },
    {
        "State": "Jigawa",
        "Name": "Federal University Dutse",
        "Abbreviation": "FUD",
        "Location": "Dutse"
    },
    {
        "State": "Katsina",
        "Name": "Federal University Dutsin-Ma",
        "Abbreviation": "FUDM",
        "Location": "Dutsin-Ma"
    },
    {
        "State": "Yobe",
        "Name": "Federal University Gashua",
        "Abbreviation": "FUGASHUA",
        "Location": "Gashua"
    },
    {
        "State": "Zamfara",
        "Name": "Federal University Gusau",
        "Abbreviation": "FUGUS",
        "Location": "Gusau"
    },
    {
        "State": "Gombe",
        "Name": "Federal University Kashere",
        "Abbreviation": "FUK",
        "Location": "Kashere"
    },
    {
        "State": "Kogi",
        "Name": "Federal University Lokoja",
        "Abbreviation": "FUL",
        "Location": "Lokoja"
    },
    {
        "State": "Ogun",
        "Name": "Federal University of Agriculture, Abeokuta",
        "Abbreviation": "FUNAAB",
        "Location": "Abeokuta"
    },
    {
        "State": "Nasarawa",
        "Name": "Federal University of Lafia",
        "Abbreviation": "FULAFIA",
        "Location": "Lafia"
    },
    {
        "State": "Delta",
        "Name": "Federal University of Petroleum Resources Effurun",
        "Abbreviation": "FUPRE",
        "Location": "Effurun"
    },
    {
        "State": "Ondo",
        "Name": "Federal University of Technology Akure",
        "Abbreviation": "FUTA",
        "Location": "Akure"
    },
    {
        "State": "Akwa Ibom",
        "Name": "Federal University of Technology Ikot Abasi",
        "Abbreviation": "FUTIA",
        "Location": "Ikot-Abasi"
    },
    {
        "State": "Niger",
        "Name": "Federal University of Technology Minna",
        "Abbreviation": "FUTMIN",
        "Location": "Minna"
    },
    {
        "State": "Imo",
        "Name": "Federal University of Technology Owerri",
        "Abbreviation": "FUTO",
        "Location": "Owerri"
    },
    {
        "State": "Bayelsa",
        "Name": "Federal University Otuoke",
        "Abbreviation": "FUO",
        "Location": "Otuoke"
    },
    {
        "State": "Ekiti",
        "Name": "Federal University Oye-Ekiti",
        "Abbreviation": "FUOYE",
        "Location": "Oye-Ekiti"
    },
    {
        "State": "Taraba",
        "Name": "Federal University Wukari",
        "Abbreviation": "FUW",
        "Location": "Wukari"
    },
    {
        "State": "Abia",
        "Name": "Michael Okpara University of Agriculture, Umudike",
        "Abbreviation": "MOUAU",
        "Location": "Umudike"
    },
    {
        "State": "Adamawa",
        "Name": "Modibbo Adama University, Yola",
        "Abbreviation": "MAU",
        "Location": "Yola"
    },
    {
        "State": "Lagos",
        "Name": "National Open University of Nigeria",
        "Abbreviation": "NOUN",
        "Location": "Victoria Island"
    },
    {
        "State": "Anambra",
        "Name": "Nnamdi Azikiwe University",
        "Abbreviation": "UNIZIK",
        "Location": "Awka"
    },
    {
        "State": "Osun",
        "Name": "Obafemi Awolowo University",
        "Abbreviation": "OAU",
        "Location": "Ile Ife"
    },
    {
        "State": "Abuja",
        "Name": "University of Abuja",
        "Abbreviation": "UNIABUJA",
        "Location": "Gwagwalada"
    },
    {
        "State": "Benue",
        "Name": "University of Agriculture, Makurdi",
        "Abbreviation": "UAM",
        "Location": "Makurdi"
    },
    {
        "State": "Edo",
        "Name": "University of Benin",
        "Abbreviation": "UNIBEN",
        "Location": "Benin City"
    },
    {
        "State": "Cross River",
        "Name": "University of Calabar",
        "Abbreviation": "UNICAL",
        "Location": "Calabar"
    },
    {
        "State": "Oyo",
        "Name": "University of Ibadan",
        "Abbreviation": "UI",
        "Location": "Ibadan"
    },
    {
        "State": "Kwara",
        "Name": "University of Ilorin",
        "Abbreviation": "UNILORIN",
        "Location": "Ilorin"
    },
    {
        "State": "Plateau",
        "Name": "University of Jos",
        "Abbreviation": "UNIJOS",
        "Location": "Jos"
    },
    {
        "State": "Lagos",
        "Name": "University of Lagos",
        "Abbreviation": "UNILAG",
        "Location": "Akoka"
    },
    {
        "State": "Borno",
        "Name": "University of Maiduguri",
        "Abbreviation": "UNIMAID",
        "Location": "Maiduguri"
    },
    {
        "State": "Enugu",
        "Name": "University of Nigeria, Nsukka",
        "Abbreviation": "UNN",
        "Location": "Nsukka"
    },
    {
        "State": "Rivers",
        "Name": "University of Port Harcourt",
        "Abbreviation": "UNIPORT",
        "Location": "Port Harcourt"
    },
    {
        "State": "Akwa Ibom",
        "Name": "University of Uyo",
        "Abbreviation": "UNIUYO",
        "Location": "Uyo"
    },
    {
        "State": "Sokoto",
        "Name": "Usmanu Danfodiyo University",
        "Abbreviation": "UDUS",
        "Location": "Sokoto"
    },
    {
        "State": "Abia",
        "Name": "Abia State University",
        "Abbreviation": "ABSU",
        "Location": "Uturu"
    },
    {
        "State": "Adamawa",
        "Name": "Adamawa State University",
        "Abbreviation": "ADSU",
        "Location": "Mubi"
    },
    {
        "State": "Ondo",
        "Name": "Adekunle Ajasin University",
        "Abbreviation": "AAUA",
        "Location": "Akungba-Akoko"
    },
    {
        "State": "Akwa Ibom",
        "Name": "Akwa Ibom State University (formerly Akwa Ibom State University of Science and Technology)",
        "Abbreviation": "AKSU",
        "Location": "Uyo"
    },
    {
        "State": "Kano",
        "Name": "Aliko Dangote University of Science and Technology",
        "Abbreviation": "ADUSTECH",
        "Location": "Wudil"
    },
    {
        "State": "Edo",
        "Name": "Ambrose Alli University",
        "Abbreviation": "AAU",
        "Location": "Ekpoma"
    },
    {
        "State": "Bauchi",
        "Name": "Bauchi State University",
        "Abbreviation": "BASUG",
        "Location": "Gadau"
    },
    {
        "State": "Bayelsa",
        "Name": "Bayelsa Medical University",
        "Abbreviation": "BMU",
        "Location": "Yenagoa"
    },
    {
        "State": "Benue",
        "Name": "Benue State University",
        "Abbreviation": "BSU",
        "Location": "Makurdi"
    },
    {
        "State": "Borno",
        "Name": "Borno State University",
        "Abbreviation": "BOSU",
        "Location": "Maiduguri"
    },
    {
        "State": "Yobe",
        "Name": "Bukar Abba Ibrahim University",
        "Abbreviation": "YSU",
        "Location": "Damaturu"
    },
    {
        "State": "Anambra",
        "Name": "Chukwuemeka Odumegwu Ojukwu University (formerly Anambra State University)",
        "Abbreviation": "ANSU",
        "Location": "Uli"
    },
    {
        "State": "Cross River",
        "Name": "University of Cross River State (formerly Cross River University of Technology)",
        "Abbreviation": "UNICROSS",
        "Location": "Ekpo-Abasi, Calabar"
    },
    {
        "State": "Delta",
        "Name": "Delta State University, Abraka",
        "Abbreviation": "DELSU",
        "Location": "Abraka"
    },
    {
        "State": "Delta",
        "Name": "Delta State University of Science and Technology, Ozoro",
        "Abbreviation": "DSPZ",
        "Location": "Ozoro"
    },
    {
        "State": "Delta",
        "Name": "Dennis Osadebe University, Asaba",
        "Abbreviation": "DOU",
        "Location": "Asaba"
    },
    {
        "State": "Ebonyi",
        "Name": "Ebonyi State University",
        "Abbreviation": "EBSU",
        "Location": "Abakaliki"
    },
    {
        "State": "Edo",
        "Name": "Edo State University",
        "Abbreviation": "EDSU",
        "Location": "Iyamho"
    },
    {
        "State": "Ekiti",
        "Name": "Ekiti State University",
        "Abbreviation": "ESUAD",
        "Location": "Ado Ekiti"
    },
    {
        "State": "Enugu",
        "Name": "Enugu State University of Science and Technology (formerly Anambra State University of Technology)",
        "Abbreviation": "ESUT",
        "Location": "Enugu"
    },
    {
        "State": "Gombe",
        "Name": "Gombe State University",
        "Abbreviation": "GSU",
        "Location": "Gombe"
    },
    {
        "State": "Gombe",
        "Name": "Gombe State University of Science and Technology",
        "Abbreviation": "GSUST",
        "Location": "Kumo"
    },
    {
        "State": "Niger",
        "Name": "Ibrahim Badamasi Babangida University",
        "Abbreviation": "IBBUL",
        "Location": "Lapai"
    },
    {
        "State": "Rivers",
        "Name": "Ignatius Ajuru University of Education",
        "Abbreviation": "IAUE)",
        "Location": "Port Harcourt"
    },
    {
        "State": "Imo",
        "Name": "Imo State University",
        "Abbreviation": "IMSU",
        "Location": "Owerri"
    },
    {
        "State": "Kaduna",
        "Name": "Kaduna State University",
        "Abbreviation": "KASU",
        "Location": "Kaduna"
    },
    {
        "State": "Kebbi",
        "Name": "Kebbi State University of Science and Technology",
        "Abbreviation": "KSUSTA",
        "Location": "Aliero"
    },
    {
        "State": "Kogi",
        "Name": "Prince Abubakar Audu University",
        "Abbreviation": "PAAU",
        "Location": "Anyigba"
    },
    {
        "State": "Kwara",
        "Name": "Kwara State University",
        "Abbreviation": "KWASU",
        "Location": "Malete"
    },
    {
        "State": "Oyo",
        "Name": "Ladoke Akintola University of Technology",
        "Abbreviation": "LAUTECH",
        "Location": "Ogbomoso"
    },
    {
        "State": "Lagos",
        "Name": "Lagos State University",
        "Abbreviation": "LASU",
        "Location": "Ojo"
    },
    {
        "State": "Lagos",
        "Name": "Lagos State University of Education",
        "Abbreviation": "LASUED",
        "Location": "Ijanikin"
    },
    {
        "State": "Lagos",
        "Name": "Lagos State University of Science and Technology",
        "Abbreviation": "LASUST",
        "Location": "Ikorodu"
    },
    {
        "State": "Nasarawa",
        "Name": "Nasarawa State University",
        "Abbreviation": "NSUK",
        "Location": "Keffi"
    },
    {
        "State": "Bayelsa",
        "Name": "Niger Delta University",
        "Abbreviation": "NDU",
        "Location": "Amassoma"
    },
    {
        "State": "Ogun",
        "Name": "Olabisi Onabanjo University",
        "Abbreviation": "OOU",
        "Location": "Ago-Iwoye"
    },
    {
        "State": "Ondo",
        "Name": "Olusegun Agagu University of Science and Technology",
        "Abbreviation": "OAUST",
        "Location": "Okitipupa"
    },
    {
        "State": "Osun",
        "Name": "Osun State University",
        "Abbreviation": "UNIOSUN",
        "Location": "Osogbo"
    },
    {
        "State": "Plateau",
        "Name": "Plateau State University",
        "Abbreviation": "PLASU",
        "Location": "Bokkos"
    },
    {
        "State": "Rivers",
        "Name": "Rivers State University",
        "Abbreviation": "RIVSU",
        "Location": "Port Harcourt"
    },
    {
        "State": "Jigawa",
        "Name": "Sule Lamido University",
        "Abbreviation": "SLU",
        "Location": "Kafin-Hausa"
    },
    {
        "State": "Ogun",
        "Name": "Tai Solarin University of Education",
        "Abbreviation": "TASUED",
        "Location": "Ijebu Ode"
    },
    {
        "State": "Taraba",
        "Name": "Taraba State University",
        "Abbreviation": "TSU",
        "Location": "Jalingo"
    },
    {
        "State": "Katsina",
        "Name": "Umaru Musa Yar'adua University",
        "Abbreviation": "UMYU",
        "Location": "Katsina"
    },
    {
        "State": "Sokoto",
        "Name": "Sokoto State University",
        "Abbreviation": "SSU",
        "Location": "Sokoto"
    },
    {
        "State": "Delta",
        "Name": "University of Delta, Agbor",
        "Abbreviation": "UNIDEL",
        "Location": "Agbor"
    },
    {
        "State": "Kano",
        "Name": "Yusuf Maitama Sule University Kano",
        "Abbreviation": "YUMSUK",
        "Location": "Kano"
    },
    {
        "State": "Zamfara",
        "Name": "Zamfara State University",
        "Abbreviation": "ZSU",
        "Location": "Talata Mafara"
    },
    {
        "State": "Kaduna",
        "Name": "Nigeria Airforce University",
        "Abbreviation": "AFIT",
        "Location": "Kaduna"
    },
    {
        "State": "Delta",
        "Name": "Nigeria Maritime University",
        "Abbreviation": "NMU",
        "Location": "Warri"
    },
    {
        "State": "Kano",
        "Name": "Nigeria Police Academy Wudil",
        "Abbreviation": "POLAC",
        "Location": "Wudil"
    },
    {
        "State": "Borno",
        "Name": "Nigerian Army University Biu",
        "Abbreviation": "NUAB",
        "Location": "Biu"
    },
    {
        "State": "Kaduna",
        "Name": "Nigerian Defence Academy",
        "Abbreviation": "NDA",
        "Location": "Kaduna"
    },
    {
        "State": "Ondo",
        "Name": "Achievers University",
        "Abbreviation": "AC",
        "Location": "Owo"
    },
    {
        "State": "Osun",
        "Name": "Adeleke University",
        "Abbreviation": "AUE",
        "Location": "Ede"
    },
    {
        "State": "Ekiti",
        "Name": "Afe Babalola University",
        "Abbreviation": "ABUAD",
        "Location": "Ado-Ekiti"
    },
    {
        "State": "Abuja",
        "Name": "African University of Science and Technology",
        "Abbreviation": "AUST",
        "Location": "Abuja"
    },
    {
        "State": "Kwara",
        "Name": "Ahman Pategi University",
        "Abbreviation": "APU",
        "Location": "Pategi"
    },
    {
        "State": "Oyo",
        "Name": "Ajayi Crowther University",
        "Abbreviation": "ACU",
        "Location": "Oyo"
    },
    {
        "State": "Borno",
        "Name": "Al-Ansar University",
        "Abbreviation": "AUM",
        "Location": "Maiduguri"
    },
    {
        "State": "Kwara",
        "Name": "Al-Hikmah University",
        "Abbreviation": "AHU",
        "Location": "Ilorin"
    },
    {
        "State": "Katsina",
        "Name": "Al-Qalam University",
        "Abbreviation": "AUK",
        "Location": "Katsina"
    },
    {
        "State": "Kano",
        "Name": "Al-Istiqama University",
        "Abbreviation": "AUSU",
        "Location": "Sumaila"
    },
    {
        "State": "Adamawa",
        "Name": "American University of Nigeria",
        "Abbreviation": "AUN",
        "Location": "Yola"
    },
    {
        "State": "Plateau",
        "Name": "Association of National Accountants of Nigeria University",
        "Abbreviation": "ANAN",
        "Location": "Kwall"
    },
    {
        "State": "Lagos",
        "Name": "Anchor University",
        "Location": "Ayobo"
    },
    {
        "State": "Cross River",
        "Name": "Arthur Jarvis University",
        "Abbreviation": "AJU",
        "Location": "Akpabuyo"
    },
    {
        "State": "Oyo",
        "Name": "Atiba University",
        "Location": "Oyo"
    },
    {
        "State": "Lagos",
        "Name": "Augustine University",
        "Abbreviation": "AUI",
        "Location": "Ilara-Epe"
    },
    {
        "State": "Nasarawa",
        "Name": "Ave Maria University",
        "Abbreviation": "AMU",
        "Location": "Piyanko"
    },
    {
        "State": "Ogun",
        "Name": "Babcock University",
        "Abbreviation": "BU",
        "Location": "Ilishan-Remo"
    },
    {
        "State": "Abuja",
        "Name": "Baze University",
        "Abbreviation": "BAZE",
        "Location": "Abuja"
    },
    {
        "State": "Ogun",
        "Name": "Bells University of Technology",
        "Abbreviation": "BUT",
        "Location": "Ota"
    },
    {
        "State": "Edo",
        "Name": "Benson Idahosa University",
        "Abbreviation": "BIU",
        "Location": "Benin City"
    },
    {
        "State": "Osun",
        "Name": "Bowen University",
        "Abbreviation": "BU",
        "Location": "Iwo"
    },
    {
        "State": "Lagos",
        "Name": "Caleb University",
        "Abbreviation": "CUl",
        "Location": "Ikorodu"
    },
    {
        "State": "Kano",
        "Name": "Capital City University of Nigeria",
        "Abbreviation": "CCUK",
        "Location": "Kano"
    },
    {
        "State": "Enugu",
        "Name": "Caritas University",
        "Location": "Enugu"
    },
    {
        "State": "Lagos",
        "Name": "CETEP City University",
        "Location": "Yaba"
    },
    {
        "State": "Ogun",
        "Name": "Chrisland University",
        "Abbreviation": "CLU",
        "Location": "Abeokuta"
    },
    {
        "State": "Ogun",
        "Name": "Christopher University",
        "Location": "Mowe"
    },
    {
        "State": "Imo",
        "Name": "Claretian University",
        "Location": "Nekede"
    },
    {
        "State": "Abia",
        "Name": "Clifford University",
        "Abbreviation": "CLU",
        "Location": "Owerrinta"
    },
    {
        "State": "Enugu",
        "Name": "Coal City University",
        "Abbreviation": "CCU",
        "Location": "Enugu"
    },
    {
        "State": "Ogun",
        "Name": "Covenant University",
        "Abbreviation": "CU",
        "Location": "Ota"
    },
    {
        "State": "Ogun",
        "Name": "Crawford University",
        "Location": "Igbesa"
    },
    {
        "State": "Ogun",
        "Name": "Crescent University",
        "Location": "Abeokuta"
    },
    {
        "State": "Oyo",
        "Name": "Dominican University",
        "Abbreviation": "DUI",
        "Location": "Ibadan"
    },
    {
        "State": "Oyo",
        "Name": "Dominion University",
        "Abbreviation": "DU",
        "Location": "Ibadan"
    },
    {
        "State": "Nasarawa",
        "Name": "ECWA Bingham University",
        "Abbreviation": "BU",
        "Location": "New Karu"
    },
    {
        "State": "Delta",
        "Name": "Edwin Clark University",
        "Abbreviation": "ECU",
        "Location": "Kiagbodo"
    },
    {
        "State": "Niger",
        "Name": "Edusoko University",
        "Location": "Bida"
    },
    {
        "State": "Lagos",
        "Name": "Eko University of Medical and Health Sciences",
        "Location": "Ijanikin"
    },
    {
        "State": "Ondo",
        "Name": "Elizade University",
        "Abbreviation": "EU",
        "Location": "Ilara-Mokin"
    },
    {
        "State": "Ebonyi",
        "Name": "Evangel University, Akaeze",
        "Abbreviation": "EUA",
        "Location": "Akaeze"
    },
    {
        "State": "Osun",
        "Name": "Fountain University, Osogbo",
        "Abbreviation": "FUO",
        "Location": "Osogbo"
    },
    {
        "State": "Enugu",
        "Name": "Godfrey Okoye University",
        "Abbreviation": "GOU",
        "Location": "Enugu"
    },
    {
        "State": "Kaduna",
        "Name": "Greenfield University",
        "Abbreviation": "GFU",
        "Location": "Kaduna"
    },
    {
        "State": "Abia",
        "Name": "Gregory University",
        "Abbreviation": "GUU",
        "Location": "Uturu"
    },
    {
        "State": "Ogun",
        "Name": "Hallmark University",
        "Location": "Ijebu-Itele"
    },
    {
        "State": "Cross River",
        "Name": "Havilla University",
        "Location": "Nde-Ikom"
    },
    {
        "State": "Imo",
        "Name": "Hezekiah University",
        "Location": "Umudi"
    },
    {
        "State": "Edo",
        "Name": "Igbinedion University",
        "Abbreviation": "IUO",
        "Location": "Okada"
    },
    {
        "State": "Lagos",
        "Name": "James Hope University",
        "Location": "Lekki"
    },
    {
        "State": "Osun",
        "Name": "Joseph Ayo Babalola University",
        "Abbreviation": "JABU",
        "Location": "Ikeji-Arakeji"
    },
    {
        "State": "Plateau",
        "Name": "Karl-Kumm University",
        "Abbreviation": "KKU",
        "Location": "Vom"
    },
    {
        "State": "Jigawa",
        "Name": "Khadija University",
        "Abbreviation": "KUM",
        "Location": "Majia"
    },
    {
        "State": "Osun",
        "Name": "Kings University",
        "Abbreviation": "KU",
        "Location": "Odeomu"
    },
    {
        "State": "Oyo",
        "Name": "Koladaisi University",
        "Abbreviation": "KU",
        "Location": "Ibadan"
    },
    {
        "State": "Taraba",
        "Name": "Kwararafa University",
        "Location": "Wukari"
    },
    {
        "State": "Kwara",
        "Name": "Landmark University",
        "Abbreviation": "LU",
        "Location": "Omu-Aran"
    },
    {
        "State": "Oyo",
        "Name": "Lead City University",
        "Abbreviation": "LCU",
        "Location": "Ibadan"
    },
    {
        "State": "Anambra",
        "Name": "Legacy University",
        "Location": "Okija"
    },
    {
        "State": "Rivers",
        "Name": "Madonna University",
        "Location": "Elele"
    },
    {
        "State": "Imo",
        "Name": "Maranathan University",
        "Location": "Mgbidi"
    },
    {
        "State": "Kano",
        "Name": "Maryam Abacha American University of Nigeria",
        "Location": "Kano"
    },
    {
        "State": "Ogun",
        "Name": "McPherson University",
        "Abbreviation": "MCU",
        "Location": "Seriki-Setayo"
    },
    {
        "State": "Nasarawa",
        "Name": "Mewar University",
        "Location": "Masaka"
    },
    {
        "State": "Delta",
        "Name": "Michael and Cecilia Ibru University",
        "Abbreviation": "MCIU",
        "Location": "Agbara-Otor"
    },
    {
        "State": "Ogun",
        "Name": "Mountain Top University",
        "Abbreviation": "MTU",
        "Location": "Makogi Oba"
    },
    {
        "State": "Edo",
        "Name": "Mudiame University",
        "Location": "Irrua"
    },
    {
        "State": "Abuja",
        "Name": "Nile University of Nigeria",
        "Abbreviation": "NUN",
        "Location": "Abuja"
    },
    {
        "State": "Kaduna",
        "Name": "NOK University",
        "Location": "Kachia"
    },
    {
        "State": "Delta",
        "Name": "Novena University",
        "Location": "Ogume"
    },
    {
        "State": "Akwa Ibom",
        "Name": "Obong University",
        "Location": "Obong Ntak"
    },
    {
        "State": "Osun",
        "Name": "Oduduwa University",
        "Abbreviation": "OUI",
        "Location": "Ipetumodu"
    },
    {
        "State": "Rivers",
        "Name": "PAMO University of Medical Sciences",
        "Location": "Port Harcourt"
    },
    {
        "State": "Lagos",
        "Name": "Pan-Atlantic University",
        "Abbreviation": "PAU",
        "Location": "Lekki"
    },
    {
        "State": "Anambra",
        "Name": "Paul University",
        "Location": "Awka"
    },
    {
        "State": "Gombe",
        "Name": "PEN Resource University",
        "Abbreviation": "PRU",
        "Location": "Gombe"
    },
    {
        "State": "Abuja",
        "Name": "Philomath University",
        "Abbreviation": "PU",
        "Location": "Kuje"
    },
    {
        "State": "Oyo",
        "Name": "Precious Cornerstone University",
        "Abbreviation": "PCU",
        "Location": "Ibadan"
    },
    {
        "State": "Osun",
        "Name": "Redeemer's University Nigeria",
        "Abbreviation": "RUN",
        "Location": "Ede"
    },
    {
        "State": "Enugu",
        "Name": "Renaissance University",
        "Location": "Ugbawka"
    },
    {
        "State": "Abia",
        "Name": "Rhema University",
        "Location": "Aba"
    },
    {
        "State": "Akwa Ibom",
        "Name": "Ritman University",
        "Location": "Ikot Ekpene"
    },
    {
        "State": "Kogi",
        "Name": "Salem University",
        "Location": "Lokoja"
    },
    {
        "State": "Edo",
        "Name": "Samuel Adegboyega University",
        "Abbreviation": "SAU",
        "Location": "Ogwa"
    },
    {
        "State": "Kano",
        "Name": "Skyline University Nigeria",
        "Abbreviation": "SUN",
        "Location": "Kano"
    },
    {
        "State": "Ogun",
        "Name": "Southwestern University, Nigeria",
        "Location": "Okun-Owa"
    },
    {
        "State": "Abia",
        "Name": "Spiritan University",
        "Location": "Nneochi"
    },
    {
        "State": "Kwara",
        "Name": "Summit University",
        "Location": "Offa"
    },
    {
        "State": "Kwara",
        "Name": "Thomas Adewunmi University",
        "Location": "Oko-Irese"
    },
    {
        "State": "Akwa Ibom",
        "Name": "Topfaith University",
        "Location": "Mkpatak"
    },
    {
        "State": "Ogun",
        "Name": "Trinity University, Nigeria",
        "Location": "Laloko"
    },
    {
        "State": "Abuja",
        "Name": "Veritas University (Catholic University of Nigeria) Abuja",
        "Abbreviation": "VUNA",
        "Location": "Bwari"
    },
    {
        "State": "Ondo",
        "Name": "Wesley University",
        "Abbreviation": "WUO",
        "Location": "Ondo"
    },
    {
        "State": "Delta",
        "Name": "Western Delta University",
        "Abbreviation": "WDU",
        "Location": "Oghara"
    },
    {
        "State": "Osun",
        "Name": "Westland University",
        "Abbreviation": "WUI",
        "Location": "Iwo"
    },
    {
        "State": "Kwara",
        "Name": "University of Offa",
        "Location": "Offa"
    },
    {
        "State": "Benue",
        "Name": "University of Mkar (formerly called Hilltop University)",
        "Location": "Mkar"
    }
]